[
  {
    "id": "P01",
    "nome": "Posto Ipiranga Jatoba",
    "endereco": "R. Srg. José Petrúcio",
    "localizacao": {
      "latitude": -8.90569,
      "longitude": -36.48955
    },
    "precoGasolina": 5.89
  },
  {
    "id": "P02",
    "nome": "Posto Freire",
    "endereco": "Av. São Miguel",
    "localizacao": {
      "latitude": -8.90351,
      "longitude": -36.48750
    },
    "precoGasolina": 6.00
  },
  {
    "id": "P03",
    "nome": "Posto Shell",
    "endereco": "BR-424",
    "localizacao": {
      "latitude": -8.90555,
      "longitude": -36.49811
    },
    "precoGasolina": 5.92
  },
  {
    "id": "P04",
    "nome": "Posto Santa Emília",
    "endereco": "Av. Deolinda Silvestre Valença",
    "localizacao": {
      "latitude": -8.90742,
      "longitude": -36.48400
    },
    "precoGasolina": 5.92
  },
  {
    "id": "P05",
    "nome": "Posto Boa Vista",
    "endereco": "Praça Dom Pedro II",
    "localizacao": {
      "latitude": -8.89572,
      "longitude": -36.49488
    },
    "precoGasolina": 5.89
  },
  {
    "id": "P06",
    "nome": "Posto Modelo",
    "endereco": "Av. Caruaru",
    "localizacao": {
      "latitude": -8.88560,
      "longitude": -36.48962
    },
    "precoGasolina": 5.99
  },
  {
    "id": "P07",
    "nome": "Posto Shell Heliopolis",
    "endereco": "R. São Vicente",
    "localizacao": {
      "latitude": -8.88181,
      "longitude": -36.49042
    },
    "precoGasolina": 5.94
  },
  {
    "id": "P08",
    "nome": "Posto Colinas",
    "endereco": "Av. Duque de Caxias",
    "localizacao": {
      "latitude": -8.88287,
      "longitude": -36.47436
    },
    "precoGasolina": 5.90
  },
  {
    "id": "P09",
    "nome": "Alvorada Combustiveis",
    "endereco": "Av. Profa. Júlia Brasileiro Vila Nova",
    "localizacao": {
      "latitude": -8.88391,
      "longitude": -36.48306
    },
    "precoGasolina": 6.05
  }
]